<?xml version="1.0" encoding="UTF-8"?>
<GeocodeResponse>
 <status>OK</status>
 <result>
  <type>administrative_area_level_2</type>
  <type>political</type>
  <formatted_address>Province of Brescia, Italy</formatted_address>
  <address_component>
   <long_name>Province of Brescia</long_name>
   <short_name>BS</short_name>
   <type>administrative_area_level_2</type>
   <type>political</type>
  </address_component>
  <address_component>
   <long_name>Lombardy</long_name>
   <short_name>Lombardy</short_name>
   <type>administrative_area_level_1</type>
   <type>political</type>
  </address_component>
  <address_component>
   <long_name>Italy</long_name>
   <short_name>IT</short_name>
   <type>country</type>
   <type>political</type>
  </address_component>
  <geometry>
   <location>
    <lat>45.6596772</lat>
    <lng>10.3856716</lng>
   </location>
   <location_type>APPROXIMATE</location_type>
   <viewport>
    <southwest>
     <lat>45.2039275</lat>
     <lng>9.8360360</lng>
    </southwest>
    <northeast>
     <lat>46.3547865</lat>
     <lng>10.8258103</lng>
    </northeast>
   </viewport>
   <bounds>
    <southwest>
     <lat>45.2039275</lat>
     <lng>9.8360360</lng>
    </southwest>
    <northeast>
     <lat>46.3547865</lat>
     <lng>10.8258103</lng>
    </northeast>
   </bounds>
  </geometry>
  <place_id>ChIJ15ACESorgkcRcH5mLgJ4BgM</place_id>
 </result>
 <result>
  <type>country</type>
  <type>political</type>
  <formatted_address>The Bahamas</formatted_address>
  <address_component>
   <long_name>The Bahamas</long_name>
   <short_name>BS</short_name>
   <type>country</type>
   <type>political</type>
  </address_component>
  <geometry>
   <location>
    <lat>25.0342800</lat>
    <lng>-77.3962800</lng>
   </location>
   <location_type>APPROXIMATE</location_type>
   <viewport>
    <southwest>
     <lat>20.9121311</lat>
     <lng>-80.4749465</lng>
    </southwest>
    <northeast>
     <lat>27.2633620</lat>
     <lng>-72.7120686</lng>
    </northeast>
   </viewport>
   <bounds>
    <southwest>
     <lat>20.9121311</lat>
     <lng>-80.4749465</lng>
    </southwest>
    <northeast>
     <lat>27.2633620</lat>
     <lng>-72.7120686</lng>
    </northeast>
   </bounds>
  </geometry>
  <place_id>ChIJPQ9Isjua1ogR5XnHaoO0PhM</place_id>
 </result>
 <result>
  <type>administrative_area_level_1</type>
  <type>political</type>
  <formatted_address>Basel-Stadt, Switzerland</formatted_address>
  <address_component>
   <long_name>Basel-Stadt</long_name>
   <short_name>BS</short_name>
   <type>administrative_area_level_1</type>
   <type>political</type>
  </address_component>
  <address_component>
   <long_name>Switzerland</long_name>
   <short_name>CH</short_name>
   <type>country</type>
   <type>political</type>
  </address_component>
  <geometry>
   <location>
    <lat>47.5619253</lat>
    <lng>7.5927680</lng>
   </location>
   <location_type>APPROXIMATE</location_type>
   <viewport>
    <southwest>
     <lat>47.5193100</lat>
     <lng>7.5548396</lng>
    </southwest>
    <northeast>
     <lat>47.6009160</lat>
     <lng>7.6938030</lng>
    </northeast>
   </viewport>
   <bounds>
    <southwest>
     <lat>47.5193100</lat>
     <lng>7.5548396</lng>
    </southwest>
    <northeast>
     <lat>47.6009160</lat>
     <lng>7.6938030</lng>
    </northeast>
   </bounds>
  </geometry>
  <place_id>ChIJZW5Lc163kUcR_qJqDx28q3Y</place_id>
 </result>
 <result>
  <type>locality</type>
  <type>political</type>
  <formatted_address>Brunswick, Germany</formatted_address>
  <address_component>
   <long_name>Brunswick</long_name>
   <short_name>BS</short_name>
   <type>locality</type>
   <type>political</type>
  </address_component>
  <address_component>
   <long_name>Lower Saxony</long_name>
   <short_name>NDS</short_name>
   <type>administrative_area_level_1</type>
   <type>political</type>
  </address_component>
  <address_component>
   <long_name>Germany</long_name>
   <short_name>DE</short_name>
   <type>country</type>
   <type>political</type>
  </address_component>
  <geometry>
   <location>
    <lat>52.2688736</lat>
    <lng>10.5267696</lng>
   </location>
   <location_type>APPROXIMATE</location_type>
   <viewport>
    <southwest>
     <lat>52.1868049</lat>
     <lng>10.4124077</lng>
    </southwest>
    <northeast>
     <lat>52.3575799</lat>
     <lng>10.6433623</lng>
    </northeast>
   </viewport>
   <bounds>
    <southwest>
     <lat>52.1868049</lat>
     <lng>10.4124077</lng>
    </southwest>
    <northeast>
     <lat>52.3575799</lat>
     <lng>10.6433623</lng>
    </northeast>
   </bounds>
  </geometry>
  <place_id>ChIJO2YAitX1r0cRsDqslG2sJQQ</place_id>
 </result>
</GeocodeResponse>
