<?xml version="1.0" encoding="UTF-8"?>
<GeocodeResponse>
 <status>OK</status>
 <result>
  <type>route</type>
  <formatted_address>Via S. Polo, Brescia BS, Italy</formatted_address>
  <address_component>
   <long_name>Via San Polo</long_name>
   <short_name>Via S. Polo</short_name>
   <type>route</type>
  </address_component>
  <address_component>
   <long_name>Brescia</long_name>
   <short_name>Brescia</short_name>
   <type>locality</type>
   <type>political</type>
  </address_component>
  <address_component>
   <long_name>Brescia</long_name>
   <short_name>Brescia</short_name>
   <type>administrative_area_level_3</type>
   <type>political</type>
  </address_component>
  <address_component>
   <long_name>Provincia di Brescia</long_name>
   <short_name>BS</short_name>
   <type>administrative_area_level_2</type>
   <type>political</type>
  </address_component>
  <address_component>
   <long_name>Lombardia</long_name>
   <short_name>Lombardia</short_name>
   <type>administrative_area_level_1</type>
   <type>political</type>
  </address_component>
  <address_component>
   <long_name>Italy</long_name>
   <short_name>IT</short_name>
   <type>country</type>
   <type>political</type>
  </address_component>
  <geometry>
   <location>
    <lat>45.5167776</lat>
    <lng>10.2494285</lng>
   </location>
   <location_type>GEOMETRIC_CENTER</location_type>
   <viewport>
    <southwest>
     <lat>45.5054857</lat>
     <lng>10.2399400</lng>
    </southwest>
    <northeast>
     <lat>45.5273577</lat>
     <lng>10.2574837</lng>
    </northeast>
   </viewport>
   <bounds>
    <southwest>
     <lat>45.5054857</lat>
     <lng>10.2399400</lng>
    </southwest>
    <northeast>
     <lat>45.5273577</lat>
     <lng>10.2574837</lng>
    </northeast>
   </bounds>
  </geometry>
  <partial_match>true</partial_match>
  <place_id>ChIJLTd3IwaegUcRmMnyJf6P9-c</place_id>
 </result>
 <result>
  <type>route</type>
  <formatted_address>Via Sanpolo, 19037 Santo Stefano di Magra SP, Italy</formatted_address>
  <address_component>
   <long_name>Via Sanpolo</long_name>
   <short_name>Via Sanpolo</short_name>
   <type>route</type>
  </address_component>
  <address_component>
   <long_name>Santo Stefano di Magra</long_name>
   <short_name>Santo Stefano di Magra</short_name>
   <type>locality</type>
   <type>political</type>
  </address_component>
  <address_component>
   <long_name>Santo Stefano di Magra</long_name>
   <short_name>Santo Stefano di Magra</short_name>
   <type>administrative_area_level_3</type>
   <type>political</type>
  </address_component>
  <address_component>
   <long_name>Provincia della Spezia</long_name>
   <short_name>SP</short_name>
   <type>administrative_area_level_2</type>
   <type>political</type>
  </address_component>
  <address_component>
   <long_name>Liguria</long_name>
   <short_name>Liguria</short_name>
   <type>administrative_area_level_1</type>
   <type>political</type>
  </address_component>
  <address_component>
   <long_name>Italy</long_name>
   <short_name>IT</short_name>
   <type>country</type>
   <type>political</type>
  </address_component>
  <address_component>
   <long_name>19037</long_name>
   <short_name>19037</short_name>
   <type>postal_code</type>
  </address_component>
  <geometry>
   <location>
    <lat>44.1397318</lat>
    <lng>9.9328879</lng>
   </location>
   <location_type>GEOMETRIC_CENTER</location_type>
   <viewport>
    <southwest>
     <lat>44.1383940</lat>
     <lng>9.9308871</lng>
    </southwest>
    <northeast>
     <lat>44.1410919</lat>
     <lng>9.9347318</lng>
    </northeast>
   </viewport>
   <bounds>
    <southwest>
     <lat>44.1388780</lat>
     <lng>9.9308871</lng>
    </southwest>
    <northeast>
     <lat>44.1406079</lat>
     <lng>9.9347318</lng>
    </northeast>
   </bounds>
  </geometry>
  <partial_match>true</partial_match>
  <place_id>ChIJvxNu-RYd1RIRY7Q4lFHjtYQ</place_id>
 </result>
 <result>
  <type>locality</type>
  <type>political</type>
  <formatted_address>43056 San Polo I PR, Italy</formatted_address>
  <address_component>
   <long_name>San Polo I</long_name>
   <short_name>San Polo I</short_name>
   <type>locality</type>
   <type>political</type>
  </address_component>
  <address_component>
   <long_name>Torrile</long_name>
   <short_name>Torrile</short_name>
   <type>administrative_area_level_3</type>
   <type>political</type>
  </address_component>
  <address_component>
   <long_name>Provincia di Parma</long_name>
   <short_name>PR</short_name>
   <type>administrative_area_level_2</type>
   <type>political</type>
  </address_component>
  <address_component>
   <long_name>Emilia-Romagna</long_name>
   <short_name>Emilia-Romagna</short_name>
   <type>administrative_area_level_1</type>
   <type>political</type>
  </address_component>
  <address_component>
   <long_name>Italy</long_name>
   <short_name>IT</short_name>
   <type>country</type>
   <type>political</type>
  </address_component>
  <address_component>
   <long_name>43056</long_name>
   <short_name>43056</short_name>
   <type>postal_code</type>
  </address_component>
  <geometry>
   <location>
    <lat>44.8975023</lat>
    <lng>10.3630679</lng>
   </location>
   <location_type>APPROXIMATE</location_type>
   <viewport>
    <southwest>
     <lat>44.8871661</lat>
     <lng>10.3556660</lng>
    </southwest>
    <northeast>
     <lat>44.9075885</lat>
     <lng>10.3693591</lng>
    </northeast>
   </viewport>
   <bounds>
    <southwest>
     <lat>44.8871661</lat>
     <lng>10.3556660</lng>
    </southwest>
    <northeast>
     <lat>44.9075885</lat>
     <lng>10.3693591</lng>
    </northeast>
   </bounds>
  </geometry>
  <partial_match>true</partial_match>
  <place_id>ChIJ6wXPEMlAgEcROfvJC_0a-4M</place_id>
 </result>
 <result>
  <type>route</type>
  <formatted_address>Str. S. Polo, 42027 Montecchio Emilia RE, Italy</formatted_address>
  <address_component>
   <long_name>Strada San Polo</long_name>
   <short_name>Str. S. Polo</short_name>
   <type>route</type>
  </address_component>
  <address_component>
   <long_name>Montecchio Emilia</long_name>
   <short_name>Montecchio Emilia</short_name>
   <type>locality</type>
   <type>political</type>
  </address_component>
  <address_component>
   <long_name>Montecchio Emilia</long_name>
   <short_name>Montecchio Emilia</short_name>
   <type>administrative_area_level_3</type>
   <type>political</type>
  </address_component>
  <address_component>
   <long_name>Provincia di Reggio Emilia</long_name>
   <short_name>RE</short_name>
   <type>administrative_area_level_2</type>
   <type>political</type>
  </address_component>
  <address_component>
   <long_name>Emilia-Romagna</long_name>
   <short_name>Emilia-Romagna</short_name>
   <type>administrative_area_level_1</type>
   <type>political</type>
  </address_component>
  <address_component>
   <long_name>Italy</long_name>
   <short_name>IT</short_name>
   <type>country</type>
   <type>political</type>
  </address_component>
  <address_component>
   <long_name>42027</long_name>
   <short_name>42027</short_name>
   <type>postal_code</type>
  </address_component>
  <geometry>
   <location>
    <lat>44.6894345</lat>
    <lng>10.4407366</lng>
   </location>
   <location_type>GEOMETRIC_CENTER</location_type>
   <viewport>
    <southwest>
     <lat>44.6860150</lat>
     <lng>10.4378650</lng>
    </southwest>
    <northeast>
     <lat>44.6926050</lat>
     <lng>10.4438500</lng>
    </northeast>
   </viewport>
   <bounds>
    <southwest>
     <lat>44.6860150</lat>
     <lng>10.4378650</lng>
    </southwest>
    <northeast>
     <lat>44.6926050</lat>
     <lng>10.4438500</lng>
    </northeast>
   </bounds>
  </geometry>
  <partial_match>true</partial_match>
  <place_id>ChIJ_TcDdrgRgEcRIk6u5U0cXl0</place_id>
 </result>
 <result>
  <type>route</type>
  <formatted_address>Via San Polo Alto, 35020 Sant'Angelo di Piove di Sacco PD, Italy</formatted_address>
  <address_component>
   <long_name>Via San Polo Alto</long_name>
   <short_name>Via San Polo Alto</short_name>
   <type>route</type>
  </address_component>
  <address_component>
   <long_name>Sant'Angelo di Piove di Sacco</long_name>
   <short_name>Sant'Angelo di Piove di Sacco</short_name>
   <type>locality</type>
   <type>political</type>
  </address_component>
  <address_component>
   <long_name>Sant'Angelo di Piove di Sacco</long_name>
   <short_name>Sant'Angelo di Piove di Sacco</short_name>
   <type>administrative_area_level_3</type>
   <type>political</type>
  </address_component>
  <address_component>
   <long_name>Provincia di Padova</long_name>
   <short_name>PD</short_name>
   <type>administrative_area_level_2</type>
   <type>political</type>
  </address_component>
  <address_component>
   <long_name>Veneto</long_name>
   <short_name>Veneto</short_name>
   <type>administrative_area_level_1</type>
   <type>political</type>
  </address_component>
  <address_component>
   <long_name>Italy</long_name>
   <short_name>IT</short_name>
   <type>country</type>
   <type>political</type>
  </address_component>
  <address_component>
   <long_name>35020</long_name>
   <short_name>35020</short_name>
   <type>postal_code</type>
  </address_component>
  <geometry>
   <location>
    <lat>45.3392282</lat>
    <lng>11.9963290</lng>
   </location>
   <location_type>GEOMETRIC_CENTER</location_type>
   <viewport>
    <southwest>
     <lat>45.3299931</lat>
     <lng>11.9861455</lng>
    </southwest>
    <northeast>
     <lat>45.3453844</lat>
     <lng>12.0066204</lng>
    </northeast>
   </viewport>
   <bounds>
    <southwest>
     <lat>45.3299931</lat>
     <lng>11.9861455</lng>
    </southwest>
    <northeast>
     <lat>45.3453844</lat>
     <lng>12.0066204</lng>
    </northeast>
   </bounds>
  </geometry>
  <partial_match>true</partial_match>
  <place_id>ChIJPQ1igfDDfkcRl5Qi9MiMm-A</place_id>
 </result>
 <result>
  <type>route</type>
  <formatted_address>Via S. Polo, 34074 Monfalcone GO, Italy</formatted_address>
  <address_component>
   <long_name>Via San Polo</long_name>
   <short_name>Via S. Polo</short_name>
   <type>route</type>
  </address_component>
  <address_component>
   <long_name>Monfalcone</long_name>
   <short_name>Monfalcone</short_name>
   <type>locality</type>
   <type>political</type>
  </address_component>
  <address_component>
   <long_name>Monfalcone</long_name>
   <short_name>Monfalcone</short_name>
   <type>administrative_area_level_3</type>
   <type>political</type>
  </address_component>
  <address_component>
   <long_name>Provincia di Gorizia</long_name>
   <short_name>GO</short_name>
   <type>administrative_area_level_2</type>
   <type>political</type>
  </address_component>
  <address_component>
   <long_name>Friuli-Venezia Giulia</long_name>
   <short_name>Friuli-Venezia Giulia</short_name>
   <type>administrative_area_level_1</type>
   <type>political</type>
  </address_component>
  <address_component>
   <long_name>Italy</long_name>
   <short_name>IT</short_name>
   <type>country</type>
   <type>political</type>
  </address_component>
  <address_component>
   <long_name>34074</long_name>
   <short_name>34074</short_name>
   <type>postal_code</type>
  </address_component>
  <geometry>
   <location>
    <lat>45.8154679</lat>
    <lng>13.5171838</lng>
   </location>
   <location_type>GEOMETRIC_CENTER</location_type>
   <viewport>
    <southwest>
     <lat>45.8109141</lat>
     <lng>13.5134200</lng>
    </southwest>
    <northeast>
     <lat>45.8206900</lat>
     <lng>13.5225075</lng>
    </northeast>
   </viewport>
   <bounds>
    <southwest>
     <lat>45.8109141</lat>
     <lng>13.5134200</lng>
    </southwest>
    <northeast>
     <lat>45.8206900</lat>
     <lng>13.5225075</lng>
    </northeast>
   </bounds>
  </geometry>
  <partial_match>true</partial_match>
  <place_id>ChIJWybI1mOne0cRUl-EqzWN3O0</place_id>
 </result>
 <result>
  <type>route</type>
  <formatted_address>Via S. Polo, 41014 Castelvetro di Modena MO, Italy</formatted_address>
  <address_component>
   <long_name>Via San Polo</long_name>
   <short_name>Via S. Polo</short_name>
   <type>route</type>
  </address_component>
  <address_component>
   <long_name>Castelvetro di Modena</long_name>
   <short_name>Castelvetro di Modena</short_name>
   <type>locality</type>
   <type>political</type>
  </address_component>
  <address_component>
   <long_name>Castelvetro di Modena</long_name>
   <short_name>Castelvetro di Modena</short_name>
   <type>administrative_area_level_3</type>
   <type>political</type>
  </address_component>
  <address_component>
   <long_name>Provincia di Modena</long_name>
   <short_name>MO</short_name>
   <type>administrative_area_level_2</type>
   <type>political</type>
  </address_component>
  <address_component>
   <long_name>Emilia-Romagna</long_name>
   <short_name>Emilia-Romagna</short_name>
   <type>administrative_area_level_1</type>
   <type>political</type>
  </address_component>
  <address_component>
   <long_name>Italy</long_name>
   <short_name>IT</short_name>
   <type>country</type>
   <type>political</type>
  </address_component>
  <address_component>
   <long_name>41014</long_name>
   <short_name>41014</short_name>
   <type>postal_code</type>
  </address_component>
  <geometry>
   <location>
    <lat>44.4894269</lat>
    <lng>10.9398248</lng>
   </location>
   <location_type>GEOMETRIC_CENTER</location_type>
   <viewport>
    <southwest>
     <lat>44.4781087</lat>
     <lng>10.9305074</lng>
    </southwest>
    <northeast>
     <lat>44.5013788</lat>
     <lng>10.9458503</lng>
    </northeast>
   </viewport>
   <bounds>
    <southwest>
     <lat>44.4781087</lat>
     <lng>10.9305074</lng>
    </southwest>
    <northeast>
     <lat>44.5013788</lat>
     <lng>10.9458503</lng>
    </northeast>
   </bounds>
  </geometry>
  <partial_match>true</partial_match>
  <place_id>ChIJA-HWRLXhf0cR7rvBSfYcCCo</place_id>
 </result>
 <result>
  <type>route</type>
  <formatted_address>Via S. Polo, 66014 Crecchio CH, Italy</formatted_address>
  <address_component>
   <long_name>Via San Polo</long_name>
   <short_name>Via S. Polo</short_name>
   <type>route</type>
  </address_component>
  <address_component>
   <long_name>Crecchio</long_name>
   <short_name>Crecchio</short_name>
   <type>administrative_area_level_3</type>
   <type>political</type>
  </address_component>
  <address_component>
   <long_name>Provincia di Chieti</long_name>
   <short_name>CH</short_name>
   <type>administrative_area_level_2</type>
   <type>political</type>
  </address_component>
  <address_component>
   <long_name>Abruzzo</long_name>
   <short_name>Abruzzo</short_name>
   <type>administrative_area_level_1</type>
   <type>political</type>
  </address_component>
  <address_component>
   <long_name>Italy</long_name>
   <short_name>IT</short_name>
   <type>country</type>
   <type>political</type>
  </address_component>
  <address_component>
   <long_name>66014</long_name>
   <short_name>66014</short_name>
   <type>postal_code</type>
  </address_component>
  <geometry>
   <location>
    <lat>42.2726860</lat>
    <lng>14.3221646</lng>
   </location>
   <location_type>GEOMETRIC_CENTER</location_type>
   <viewport>
    <southwest>
     <lat>42.2701583</lat>
     <lng>14.3188408</lng>
    </southwest>
    <northeast>
     <lat>42.2758274</lat>
     <lng>14.3238809</lng>
    </northeast>
   </viewport>
   <bounds>
    <southwest>
     <lat>42.2701583</lat>
     <lng>14.3188408</lng>
    </southwest>
    <northeast>
     <lat>42.2758274</lat>
     <lng>14.3238809</lng>
    </northeast>
   </bounds>
  </geometry>
  <partial_match>true</partial_match>
  <place_id>ChIJg5g3xCcAMRMRCm68kTrdaWU</place_id>
 </result>
 <result>
  <type>route</type>
  <formatted_address>Via S. Polo, 25017 San Polo BS, Italy</formatted_address>
  <address_component>
   <long_name>Via San Polo</long_name>
   <short_name>Via S. Polo</short_name>
   <type>route</type>
  </address_component>
  <address_component>
   <long_name>San Polo</long_name>
   <short_name>San Polo</short_name>
   <type>locality</type>
   <type>political</type>
  </address_component>
  <address_component>
   <long_name>Lonato del Garda</long_name>
   <short_name>Lonato del Garda</short_name>
   <type>administrative_area_level_3</type>
   <type>political</type>
  </address_component>
  <address_component>
   <long_name>Provincia di Brescia</long_name>
   <short_name>BS</short_name>
   <type>administrative_area_level_2</type>
   <type>political</type>
  </address_component>
  <address_component>
   <long_name>Lombardia</long_name>
   <short_name>Lombardia</short_name>
   <type>administrative_area_level_1</type>
   <type>political</type>
  </address_component>
  <address_component>
   <long_name>Italy</long_name>
   <short_name>IT</short_name>
   <type>country</type>
   <type>political</type>
  </address_component>
  <address_component>
   <long_name>25017</long_name>
   <short_name>25017</short_name>
   <type>postal_code</type>
  </address_component>
  <geometry>
   <location>
    <lat>45.4375653</lat>
    <lng>10.4863480</lng>
   </location>
   <location_type>GEOMETRIC_CENTER</location_type>
   <viewport>
    <southwest>
     <lat>45.4299506</lat>
     <lng>10.4805038</lng>
    </southwest>
    <northeast>
     <lat>45.4438150</lat>
     <lng>10.4912571</lng>
    </northeast>
   </viewport>
   <bounds>
    <southwest>
     <lat>45.4299506</lat>
     <lng>10.4805038</lng>
    </southwest>
    <northeast>
     <lat>45.4438150</lat>
     <lng>10.4912571</lng>
    </northeast>
   </bounds>
  </geometry>
  <partial_match>true</partial_match>
  <place_id>ChIJD34LsQ6WgUcR843yzSZTzdo</place_id>
 </result>
 <result>
  <type>route</type>
  <formatted_address>San Polo, 66014 Crecchio CH, Italy</formatted_address>
  <address_component>
   <long_name>San Polo</long_name>
   <short_name>San Polo</short_name>
   <type>route</type>
  </address_component>
  <address_component>
   <long_name>Crecchio</long_name>
   <short_name>Crecchio</short_name>
   <type>administrative_area_level_3</type>
   <type>political</type>
  </address_component>
  <address_component>
   <long_name>Provincia di Chieti</long_name>
   <short_name>CH</short_name>
   <type>administrative_area_level_2</type>
   <type>political</type>
  </address_component>
  <address_component>
   <long_name>Abruzzo</long_name>
   <short_name>Abruzzo</short_name>
   <type>administrative_area_level_1</type>
   <type>political</type>
  </address_component>
  <address_component>
   <long_name>Italy</long_name>
   <short_name>IT</short_name>
   <type>country</type>
   <type>political</type>
  </address_component>
  <address_component>
   <long_name>66014</long_name>
   <short_name>66014</short_name>
   <type>postal_code</type>
  </address_component>
  <geometry>
   <location>
    <lat>42.2819202</lat>
    <lng>14.3247895</lng>
   </location>
   <location_type>GEOMETRIC_CENTER</location_type>
   <viewport>
    <southwest>
     <lat>42.2706280</lat>
     <lng>14.3188408</lng>
    </southwest>
    <northeast>
     <lat>42.2924965</lat>
     <lng>14.3321170</lng>
    </northeast>
   </viewport>
   <bounds>
    <southwest>
     <lat>42.2706280</lat>
     <lng>14.3188408</lng>
    </southwest>
    <northeast>
     <lat>42.2924965</lat>
     <lng>14.3321170</lng>
    </northeast>
   </bounds>
  </geometry>
  <partial_match>true</partial_match>
  <place_id>ChIJt9XG1DMAMRMRQMYvw5o_SBs</place_id>
 </result>
 <result>
  <type>route</type>
  <formatted_address>Via S. Polo, 60030 Belvedere Ostrense AN, Italy</formatted_address>
  <address_component>
   <long_name>Via San Polo</long_name>
   <short_name>Via S. Polo</short_name>
   <type>route</type>
  </address_component>
  <address_component>
   <long_name>Belvedere Ostrense</long_name>
   <short_name>Belvedere Ostrense</short_name>
   <type>administrative_area_level_3</type>
   <type>political</type>
  </address_component>
  <address_component>
   <long_name>Provincia di Ancona</long_name>
   <short_name>AN</short_name>
   <type>administrative_area_level_2</type>
   <type>political</type>
  </address_component>
  <address_component>
   <long_name>Marche</long_name>
   <short_name>Marche</short_name>
   <type>administrative_area_level_1</type>
   <type>political</type>
  </address_component>
  <address_component>
   <long_name>Italy</long_name>
   <short_name>IT</short_name>
   <type>country</type>
   <type>political</type>
  </address_component>
  <address_component>
   <long_name>60030</long_name>
   <short_name>60030</short_name>
   <type>postal_code</type>
  </address_component>
  <geometry>
   <location>
    <lat>43.5534688</lat>
    <lng>13.1667172</lng>
   </location>
   <location_type>GEOMETRIC_CENTER</location_type>
   <viewport>
    <southwest>
     <lat>43.5494685</lat>
     <lng>13.1612609</lng>
    </southwest>
    <northeast>
     <lat>43.5578508</lat>
     <lng>13.1713762</lng>
    </northeast>
   </viewport>
   <bounds>
    <southwest>
     <lat>43.5494685</lat>
     <lng>13.1612609</lng>
    </southwest>
    <northeast>
     <lat>43.5578508</lat>
     <lng>13.1713762</lng>
    </northeast>
   </bounds>
  </geometry>
  <partial_match>true</partial_match>
  <place_id>ChIJE1Z8sQWiLRMRr0nZzWismmQ</place_id>
 </result>
 <result>
  <type>route</type>
  <formatted_address>Str. S. Polo, 00019 Bivio San Polo RM, Italy</formatted_address>
  <address_component>
   <long_name>Strada San Polo</long_name>
   <short_name>Str. S. Polo</short_name>
   <type>route</type>
  </address_component>
  <address_component>
   <long_name>Bivio San Polo</long_name>
   <short_name>Bivio San Polo</short_name>
   <type>locality</type>
   <type>political</type>
  </address_component>
  <address_component>
   <long_name>Tivoli</long_name>
   <short_name>Tivoli</short_name>
   <type>administrative_area_level_3</type>
   <type>political</type>
  </address_component>
  <address_component>
   <long_name>Città Metropolitana di Roma</long_name>
   <short_name>RM</short_name>
   <type>administrative_area_level_2</type>
   <type>political</type>
  </address_component>
  <address_component>
   <long_name>Lazio</long_name>
   <short_name>Lazio</short_name>
   <type>administrative_area_level_1</type>
   <type>political</type>
  </address_component>
  <address_component>
   <long_name>Italy</long_name>
   <short_name>IT</short_name>
   <type>country</type>
   <type>political</type>
  </address_component>
  <address_component>
   <long_name>00019</long_name>
   <short_name>00019</short_name>
   <type>postal_code</type>
  </address_component>
  <geometry>
   <location>
    <lat>41.9842738</lat>
    <lng>12.8323510</lng>
   </location>
   <location_type>GEOMETRIC_CENTER</location_type>
   <viewport>
    <southwest>
     <lat>41.9707116</lat>
     <lng>12.8254688</lng>
    </southwest>
    <northeast>
     <lat>41.9971491</lat>
     <lng>12.8388957</lng>
    </northeast>
   </viewport>
   <bounds>
    <southwest>
     <lat>41.9707116</lat>
     <lng>12.8254688</lng>
    </southwest>
    <northeast>
     <lat>41.9971491</lat>
     <lng>12.8388957</lng>
    </northeast>
   </bounds>
  </geometry>
  <partial_match>true</partial_match>
  <place_id>ChIJCbzBT8eCLxMREeIXkt2LW10</place_id>
 </result>
 <result>
  <type>route</type>
  <formatted_address>Vía San Polo, Lady Lake, FL 32159, USA</formatted_address>
  <address_component>
   <long_name>Vía San Polo</long_name>
   <short_name>Vía San Polo</short_name>
   <type>route</type>
  </address_component>
  <address_component>
   <long_name>Lady Lake</long_name>
   <short_name>Lady Lake</short_name>
   <type>locality</type>
   <type>political</type>
  </address_component>
  <address_component>
   <long_name>Lake County</long_name>
   <short_name>Lake County</short_name>
   <type>administrative_area_level_2</type>
   <type>political</type>
  </address_component>
  <address_component>
   <long_name>Florida</long_name>
   <short_name>FL</short_name>
   <type>administrative_area_level_1</type>
   <type>political</type>
  </address_component>
  <address_component>
   <long_name>United States</long_name>
   <short_name>US</short_name>
   <type>country</type>
   <type>political</type>
  </address_component>
  <address_component>
   <long_name>32159</long_name>
   <short_name>32159</short_name>
   <type>postal_code</type>
  </address_component>
  <geometry>
   <location>
    <lat>28.9124780</lat>
    <lng>-81.9401120</lng>
   </location>
   <location_type>GEOMETRIC_CENTER</location_type>
   <viewport>
    <southwest>
     <lat>28.9102870</lat>
     <lng>-81.9431160</lng>
    </southwest>
    <northeast>
     <lat>28.9134450</lat>
     <lng>-81.9368580</lng>
    </northeast>
   </viewport>
   <bounds>
    <southwest>
     <lat>28.9102870</lat>
     <lng>-81.9431160</lng>
    </southwest>
    <northeast>
     <lat>28.9134450</lat>
     <lng>-81.9368580</lng>
    </northeast>
   </bounds>
  </geometry>
  <partial_match>true</partial_match>
  <place_id>ChIJiZzOtbvG54gRU6_1xBDuxmg</place_id>
 </result>
 <result>
  <type>route</type>
  <formatted_address>Via S. Polo, 52033 Colle AR, Italy</formatted_address>
  <address_component>
   <long_name>Via San Polo</long_name>
   <short_name>Via S. Polo</short_name>
   <type>route</type>
  </address_component>
  <address_component>
   <long_name>Colle</long_name>
   <short_name>Colle</short_name>
   <type>locality</type>
   <type>political</type>
  </address_component>
  <address_component>
   <long_name>Caprese Michelangelo</long_name>
   <short_name>Caprese Michelangelo</short_name>
   <type>administrative_area_level_3</type>
   <type>political</type>
  </address_component>
  <address_component>
   <long_name>Provincia di Arezzo</long_name>
   <short_name>AR</short_name>
   <type>administrative_area_level_2</type>
   <type>political</type>
  </address_component>
  <address_component>
   <long_name>Toscana</long_name>
   <short_name>Toscana</short_name>
   <type>administrative_area_level_1</type>
   <type>political</type>
  </address_component>
  <address_component>
   <long_name>Italy</long_name>
   <short_name>IT</short_name>
   <type>country</type>
   <type>political</type>
  </address_component>
  <address_component>
   <long_name>52033</long_name>
   <short_name>52033</short_name>
   <type>postal_code</type>
  </address_component>
  <geometry>
   <location>
    <lat>43.6224367</lat>
    <lng>11.9902404</lng>
   </location>
   <location_type>GEOMETRIC_CENTER</location_type>
   <viewport>
    <southwest>
     <lat>43.6210117</lat>
     <lng>11.9894045</lng>
    </southwest>
    <northeast>
     <lat>43.6246497</lat>
     <lng>11.9921025</lng>
    </northeast>
   </viewport>
   <bounds>
    <southwest>
     <lat>43.6210117</lat>
     <lng>11.9895315</lng>
    </southwest>
    <northeast>
     <lat>43.6246497</lat>
     <lng>11.9919755</lng>
    </northeast>
   </bounds>
  </geometry>
  <partial_match>true</partial_match>
  <place_id>ChIJe82ZPwWGKxMRJ0OGhW0xtxg</place_id>
 </result>
 <result>
  <type>route</type>
  <formatted_address>Via S. Polo, 67039 Sulmona AQ, Italy</formatted_address>
  <address_component>
   <long_name>Via San Polo</long_name>
   <short_name>Via S. Polo</short_name>
   <type>route</type>
  </address_component>
  <address_component>
   <long_name>Sulmona</long_name>
   <short_name>Sulmona</short_name>
   <type>locality</type>
   <type>political</type>
  </address_component>
  <address_component>
   <long_name>Sulmona</long_name>
   <short_name>Sulmona</short_name>
   <type>administrative_area_level_3</type>
   <type>political</type>
  </address_component>
  <address_component>
   <long_name>Provincia dell'Aquila</long_name>
   <short_name>AQ</short_name>
   <type>administrative_area_level_2</type>
   <type>political</type>
  </address_component>
  <address_component>
   <long_name>Abruzzo</long_name>
   <short_name>Abruzzo</short_name>
   <type>administrative_area_level_1</type>
   <type>political</type>
  </address_component>
  <address_component>
   <long_name>Italy</long_name>
   <short_name>IT</short_name>
   <type>country</type>
   <type>political</type>
  </address_component>
  <address_component>
   <long_name>67039</long_name>
   <short_name>67039</short_name>
   <type>postal_code</type>
  </address_component>
  <geometry>
   <location>
    <lat>42.0572448</lat>
    <lng>13.9234390</lng>
   </location>
   <location_type>GEOMETRIC_CENTER</location_type>
   <viewport>
    <southwest>
     <lat>42.0556574</lat>
     <lng>13.9222000</lng>
    </southwest>
    <northeast>
     <lat>42.0584348</lat>
     <lng>13.9250488</lng>
    </northeast>
   </viewport>
   <bounds>
    <southwest>
     <lat>42.0556574</lat>
     <lng>13.9222000</lng>
    </southwest>
    <northeast>
     <lat>42.0584348</lat>
     <lng>13.9250488</lng>
    </northeast>
   </bounds>
  </geometry>
  <partial_match>true</partial_match>
  <place_id>ChIJxdLvNYRAMBMR-bzVkFGrlb0</place_id>
 </result>
 <result>
  <type>route</type>
  <formatted_address>Via S. Polo, 50018 Scandicci FI, Italy</formatted_address>
  <address_component>
   <long_name>Via San Polo</long_name>
   <short_name>Via S. Polo</short_name>
   <type>route</type>
  </address_component>
  <address_component>
   <long_name>Scandicci</long_name>
   <short_name>Scandicci</short_name>
   <type>administrative_area_level_3</type>
   <type>political</type>
  </address_component>
  <address_component>
   <long_name>Città Metropolitana di Firenze</long_name>
   <short_name>FI</short_name>
   <type>administrative_area_level_2</type>
   <type>political</type>
  </address_component>
  <address_component>
   <long_name>Toscana</long_name>
   <short_name>Toscana</short_name>
   <type>administrative_area_level_1</type>
   <type>political</type>
  </address_component>
  <address_component>
   <long_name>Italy</long_name>
   <short_name>IT</short_name>
   <type>country</type>
   <type>political</type>
  </address_component>
  <address_component>
   <long_name>50018</long_name>
   <short_name>50018</short_name>
   <type>postal_code</type>
  </address_component>
  <geometry>
   <location>
    <lat>43.7252044</lat>
    <lng>11.1630574</lng>
   </location>
   <location_type>GEOMETRIC_CENTER</location_type>
   <viewport>
    <southwest>
     <lat>43.7211534</lat>
     <lng>11.1565175</lng>
    </southwest>
    <northeast>
     <lat>43.7343427</lat>
     <lng>11.1717615</lng>
    </northeast>
   </viewport>
   <bounds>
    <southwest>
     <lat>43.7211534</lat>
     <lng>11.1565175</lng>
    </southwest>
    <northeast>
     <lat>43.7343427</lat>
     <lng>11.1717615</lng>
    </northeast>
   </bounds>
  </geometry>
  <partial_match>true</partial_match>
  <place_id>ChIJjTrDantQKhMRxboh66KX7kM</place_id>
 </result>
 <result>
  <type>route</type>
  <formatted_address>San Polo Ct, Victoria, TX 77904, USA</formatted_address>
  <address_component>
   <long_name>San Polo Court</long_name>
   <short_name>San Polo Ct</short_name>
   <type>route</type>
  </address_component>
  <address_component>
   <long_name>Victoria</long_name>
   <short_name>Victoria</short_name>
   <type>locality</type>
   <type>political</type>
  </address_component>
  <address_component>
   <long_name>Victoria County</long_name>
   <short_name>Victoria County</short_name>
   <type>administrative_area_level_2</type>
   <type>political</type>
  </address_component>
  <address_component>
   <long_name>Texas</long_name>
   <short_name>TX</short_name>
   <type>administrative_area_level_1</type>
   <type>political</type>
  </address_component>
  <address_component>
   <long_name>United States</long_name>
   <short_name>US</short_name>
   <type>country</type>
   <type>political</type>
  </address_component>
  <address_component>
   <long_name>77904</long_name>
   <short_name>77904</short_name>
   <type>postal_code</type>
  </address_component>
  <geometry>
   <location>
    <lat>28.8970809</lat>
    <lng>-97.0023975</lng>
   </location>
   <location_type>GEOMETRIC_CENTER</location_type>
   <viewport>
    <southwest>
     <lat>28.8954765</lat>
     <lng>-97.0034175</lng>
    </southwest>
    <northeast>
     <lat>28.8981745</lat>
     <lng>-97.0007195</lng>
    </northeast>
   </viewport>
   <bounds>
    <southwest>
     <lat>28.8961970</lat>
     <lng>-97.0027700</lng>
    </southwest>
    <northeast>
     <lat>28.8974540</lat>
     <lng>-97.0013670</lng>
    </northeast>
   </bounds>
  </geometry>
  <partial_match>true</partial_match>
  <place_id>ChIJ-2VBhNldQoYRzo54jMQlalA</place_id>
 </result>
 <result>
  <type>route</type>
  <formatted_address>Via S. Polo, 42030 Viano RE, Italy</formatted_address>
  <address_component>
   <long_name>Via San Polo</long_name>
   <short_name>Via S. Polo</short_name>
   <type>route</type>
  </address_component>
  <address_component>
   <long_name>Viano</long_name>
   <short_name>Viano</short_name>
   <type>locality</type>
   <type>political</type>
  </address_component>
  <address_component>
   <long_name>Viano</long_name>
   <short_name>Viano</short_name>
   <type>administrative_area_level_3</type>
   <type>political</type>
  </address_component>
  <address_component>
   <long_name>Provincia di Reggio Emilia</long_name>
   <short_name>RE</short_name>
   <type>administrative_area_level_2</type>
   <type>political</type>
  </address_component>
  <address_component>
   <long_name>Emilia-Romagna</long_name>
   <short_name>Emilia-Romagna</short_name>
   <type>administrative_area_level_1</type>
   <type>political</type>
  </address_component>
  <address_component>
   <long_name>Italy</long_name>
   <short_name>IT</short_name>
   <type>country</type>
   <type>political</type>
  </address_component>
  <address_component>
   <long_name>42030</long_name>
   <short_name>42030</short_name>
   <type>postal_code</type>
  </address_component>
  <geometry>
   <location>
    <lat>44.5493480</lat>
    <lng>10.6243379</lng>
   </location>
   <location_type>GEOMETRIC_CENTER</location_type>
   <viewport>
    <southwest>
     <lat>44.5474405</lat>
     <lng>10.6195691</lng>
    </southwest>
    <northeast>
     <lat>44.5501385</lat>
     <lng>10.6293961</lng>
    </northeast>
   </viewport>
   <bounds>
    <southwest>
     <lat>44.5477371</lat>
     <lng>10.6195691</lng>
    </southwest>
    <northeast>
     <lat>44.5498419</lat>
     <lng>10.6293961</lng>
    </northeast>
   </bounds>
  </geometry>
  <partial_match>true</partial_match>
  <place_id>ChIJ40Fdvc4BgEcROdVCyFLljug</place_id>
 </result>
 <result>
  <type>route</type>
  <formatted_address>Via S. Polo, 41049 Sassuolo MO, Italy</formatted_address>
  <address_component>
   <long_name>Via San Polo</long_name>
   <short_name>Via S. Polo</short_name>
   <type>route</type>
  </address_component>
  <address_component>
   <long_name>Sassuolo</long_name>
   <short_name>Sassuolo</short_name>
   <type>locality</type>
   <type>political</type>
  </address_component>
  <address_component>
   <long_name>Sassuolo</long_name>
   <short_name>Sassuolo</short_name>
   <type>administrative_area_level_3</type>
   <type>political</type>
  </address_component>
  <address_component>
   <long_name>Provincia di Modena</long_name>
   <short_name>MO</short_name>
   <type>administrative_area_level_2</type>
   <type>political</type>
  </address_component>
  <address_component>
   <long_name>Emilia-Romagna</long_name>
   <short_name>Emilia-Romagna</short_name>
   <type>administrative_area_level_1</type>
   <type>political</type>
  </address_component>
  <address_component>
   <long_name>Italy</long_name>
   <short_name>IT</short_name>
   <type>country</type>
   <type>political</type>
  </address_component>
  <address_component>
   <long_name>41049</long_name>
   <short_name>41049</short_name>
   <type>postal_code</type>
  </address_component>
  <geometry>
   <location>
    <lat>44.5251060</lat>
    <lng>10.7807025</lng>
   </location>
   <location_type>GEOMETRIC_CENTER</location_type>
   <viewport>
    <southwest>
     <lat>44.5240196</lat>
     <lng>10.7780080</lng>
    </southwest>
    <northeast>
     <lat>44.5267176</lat>
     <lng>10.7832887</lng>
    </northeast>
   </viewport>
   <bounds>
    <southwest>
     <lat>44.5243878</lat>
     <lng>10.7780080</lng>
    </southwest>
    <northeast>
     <lat>44.5263494</lat>
     <lng>10.7832887</lng>
    </northeast>
   </bounds>
  </geometry>
  <partial_match>true</partial_match>
  <place_id>ChIJJcp1GB39f0cRJkhcy2U4LH8</place_id>
 </result>
 <result>
  <type>route</type>
  <formatted_address>Calle San Polo, 50007 Zaragoza, Zaragoza, Spain</formatted_address>
  <address_component>
   <long_name>Calle San Polo</long_name>
   <short_name>Calle San Polo</short_name>
   <type>route</type>
  </address_component>
  <address_component>
   <long_name>Zaragoza</long_name>
   <short_name>Zaragoza</short_name>
   <type>locality</type>
   <type>political</type>
  </address_component>
  <address_component>
   <long_name>Zaragoza</long_name>
   <short_name>Z</short_name>
   <type>administrative_area_level_2</type>
   <type>political</type>
  </address_component>
  <address_component>
   <long_name>Aragón</long_name>
   <short_name>Aragón</short_name>
   <type>administrative_area_level_1</type>
   <type>political</type>
  </address_component>
  <address_component>
   <long_name>Spain</long_name>
   <short_name>ES</short_name>
   <type>country</type>
   <type>political</type>
  </address_component>
  <address_component>
   <long_name>50007</long_name>
   <short_name>50007</short_name>
   <type>postal_code</type>
  </address_component>
  <geometry>
   <location>
    <lat>41.6089086</lat>
    <lng>-0.8935840</lng>
   </location>
   <location_type>GEOMETRIC_CENTER</location_type>
   <viewport>
    <southwest>
     <lat>41.6055072</lat>
     <lng>-0.8942901</lng>
    </southwest>
    <northeast>
     <lat>41.6119921</lat>
     <lng>-0.8915922</lng>
    </northeast>
   </viewport>
   <bounds>
    <southwest>
     <lat>41.6055072</lat>
     <lng>-0.8940468</lng>
    </southwest>
    <northeast>
     <lat>41.6119921</lat>
     <lng>-0.8918355</lng>
    </northeast>
   </bounds>
  </geometry>
  <partial_match>true</partial_match>
  <place_id>ChIJQWxJKUUVWQ0RHICqV5EtYgM</place_id>
 </result>
 <result>
  <type>route</type>
  <formatted_address>Via S. Polo, 60024 Filottrano AN, Italy</formatted_address>
  <address_component>
   <long_name>Via San Polo</long_name>
   <short_name>Via S. Polo</short_name>
   <type>route</type>
  </address_component>
  <address_component>
   <long_name>Filottrano</long_name>
   <short_name>Filottrano</short_name>
   <type>administrative_area_level_3</type>
   <type>political</type>
  </address_component>
  <address_component>
   <long_name>Provincia di Ancona</long_name>
   <short_name>AN</short_name>
   <type>administrative_area_level_2</type>
   <type>political</type>
  </address_component>
  <address_component>
   <long_name>Marche</long_name>
   <short_name>Marche</short_name>
   <type>administrative_area_level_1</type>
   <type>political</type>
  </address_component>
  <address_component>
   <long_name>Italy</long_name>
   <short_name>IT</short_name>
   <type>country</type>
   <type>political</type>
  </address_component>
  <address_component>
   <long_name>60024</long_name>
   <short_name>60024</short_name>
   <type>postal_code</type>
  </address_component>
  <geometry>
   <location>
    <lat>43.4754458</lat>
    <lng>13.3796124</lng>
   </location>
   <location_type>GEOMETRIC_CENTER</location_type>
   <viewport>
    <southwest>
     <lat>43.4738614</lat>
     <lng>13.3683898</lng>
    </southwest>
    <northeast>
     <lat>43.4765593</lat>
     <lng>13.3903420</lng>
    </northeast>
   </viewport>
   <bounds>
    <southwest>
     <lat>43.4739200</lat>
     <lng>13.3683898</lng>
    </southwest>
    <northeast>
     <lat>43.4765007</lat>
     <lng>13.3903420</lng>
    </northeast>
   </bounds>
  </geometry>
  <partial_match>true</partial_match>
  <place_id>ChIJme__cUGFLRMR5nI04WPgHPE</place_id>
 </result>
 <result>
  <type>route</type>
  <formatted_address>Str. S. Polo, 58100 Grosseto GR, Italy</formatted_address>
  <address_component>
   <long_name>Strada San Polo</long_name>
   <short_name>Str. S. Polo</short_name>
   <type>route</type>
  </address_component>
  <address_component>
   <long_name>Grosseto</long_name>
   <short_name>Grosseto</short_name>
   <type>locality</type>
   <type>political</type>
  </address_component>
  <address_component>
   <long_name>Grosseto</long_name>
   <short_name>Grosseto</short_name>
   <type>administrative_area_level_3</type>
   <type>political</type>
  </address_component>
  <address_component>
   <long_name>Provincia di Grosseto</long_name>
   <short_name>GR</short_name>
   <type>administrative_area_level_2</type>
   <type>political</type>
  </address_component>
  <address_component>
   <long_name>Toscana</long_name>
   <short_name>Toscana</short_name>
   <type>administrative_area_level_1</type>
   <type>political</type>
  </address_component>
  <address_component>
   <long_name>Italy</long_name>
   <short_name>IT</short_name>
   <type>country</type>
   <type>political</type>
  </address_component>
  <address_component>
   <long_name>58100</long_name>
   <short_name>58100</short_name>
   <type>postal_code</type>
  </address_component>
  <geometry>
   <location>
    <lat>42.7778765</lat>
    <lng>11.0968244</lng>
   </location>
   <location_type>GEOMETRIC_CENTER</location_type>
   <viewport>
    <southwest>
     <lat>42.7769933</lat>
     <lng>11.0940750</lng>
    </southwest>
    <northeast>
     <lat>42.7796913</lat>
     <lng>11.0986975</lng>
    </northeast>
   </viewport>
   <bounds>
    <southwest>
     <lat>42.7773135</lat>
     <lng>11.0940750</lng>
    </southwest>
    <northeast>
     <lat>42.7793711</lat>
     <lng>11.0986975</lng>
    </northeast>
   </bounds>
  </geometry>
  <partial_match>true</partial_match>
  <place_id>ChIJJfAUqZewKRMRjYEJPDL_pgY</place_id>
 </result>
 <result>
  <type>route</type>
  <formatted_address>Calle San Polo, 13326 Montiel, Cdad. Real, Spain</formatted_address>
  <address_component>
   <long_name>Calle San Polo</long_name>
   <short_name>Calle San Polo</short_name>
   <type>route</type>
  </address_component>
  <address_component>
   <long_name>Montiel</long_name>
   <short_name>Montiel</short_name>
   <type>locality</type>
   <type>political</type>
  </address_component>
  <address_component>
   <long_name>Ciudad Real</long_name>
   <short_name>Cdad. Real</short_name>
   <type>administrative_area_level_2</type>
   <type>political</type>
  </address_component>
  <address_component>
   <long_name>Castilla-La Mancha</long_name>
   <short_name>CM</short_name>
   <type>administrative_area_level_1</type>
   <type>political</type>
  </address_component>
  <address_component>
   <long_name>Spain</long_name>
   <short_name>ES</short_name>
   <type>country</type>
   <type>political</type>
  </address_component>
  <address_component>
   <long_name>13326</long_name>
   <short_name>13326</short_name>
   <type>postal_code</type>
  </address_component>
  <geometry>
   <location>
    <lat>38.6968282</lat>
    <lng>-2.8718203</lng>
   </location>
   <location_type>GEOMETRIC_CENTER</location_type>
   <viewport>
    <southwest>
     <lat>38.6952323</lat>
     <lng>-2.8731039</lng>
    </southwest>
    <northeast>
     <lat>38.6982702</lat>
     <lng>-2.8704060</lng>
    </northeast>
   </viewport>
   <bounds>
    <southwest>
     <lat>38.6952323</lat>
     <lng>-2.8721737</lng>
    </southwest>
    <northeast>
     <lat>38.6982702</lat>
     <lng>-2.8713362</lng>
    </northeast>
   </bounds>
  </geometry>
  <partial_match>true</partial_match>
  <place_id>ChIJF7MzIxzMaA0RYcp3VpEBTAY</place_id>
 </result>
 <result>
  <type>route</type>
  <formatted_address>Località S. Polo, 52100 Arezzo AR, Italy</formatted_address>
  <address_component>
   <long_name>Località San Polo</long_name>
   <short_name>Località S. Polo</short_name>
   <type>route</type>
  </address_component>
  <address_component>
   <long_name>Arezzo</long_name>
   <short_name>Arezzo</short_name>
   <type>administrative_area_level_3</type>
   <type>political</type>
  </address_component>
  <address_component>
   <long_name>Provincia di Arezzo</long_name>
   <short_name>AR</short_name>
   <type>administrative_area_level_2</type>
   <type>political</type>
  </address_component>
  <address_component>
   <long_name>Toscana</long_name>
   <short_name>Toscana</short_name>
   <type>administrative_area_level_1</type>
   <type>political</type>
  </address_component>
  <address_component>
   <long_name>Italy</long_name>
   <short_name>IT</short_name>
   <type>country</type>
   <type>political</type>
  </address_component>
  <address_component>
   <long_name>52100</long_name>
   <short_name>52100</short_name>
   <type>postal_code</type>
  </address_component>
  <geometry>
   <location>
    <lat>43.4846443</lat>
    <lng>11.9071589</lng>
   </location>
   <location_type>GEOMETRIC_CENTER</location_type>
   <viewport>
    <southwest>
     <lat>43.4811911</lat>
     <lng>11.9052978</lng>
    </southwest>
    <northeast>
     <lat>43.4868425</lat>
     <lng>11.9121500</lng>
    </northeast>
   </viewport>
   <bounds>
    <southwest>
     <lat>43.4811911</lat>
     <lng>11.9052978</lng>
    </southwest>
    <northeast>
     <lat>43.4868425</lat>
     <lng>11.9121500</lng>
    </northeast>
   </bounds>
  </geometry>
  <partial_match>true</partial_match>
  <place_id>ChIJSSDwW0iNKxMR042BktqpuqY</place_id>
 </result>
 <result>
  <type>locality</type>
  <type>political</type>
  <formatted_address>42020 San Polo d'Enza RE, Italy</formatted_address>
  <address_component>
   <long_name>San Polo d'Enza</long_name>
   <short_name>San Polo d'Enza</short_name>
   <type>locality</type>
   <type>political</type>
  </address_component>
  <address_component>
   <long_name>San Polo d'Enza</long_name>
   <short_name>San Polo d'Enza</short_name>
   <type>administrative_area_level_3</type>
   <type>political</type>
  </address_component>
  <address_component>
   <long_name>Provincia di Reggio Emilia</long_name>
   <short_name>RE</short_name>
   <type>administrative_area_level_2</type>
   <type>political</type>
  </address_component>
  <address_component>
   <long_name>Emilia-Romagna</long_name>
   <short_name>Emilia-Romagna</short_name>
   <type>administrative_area_level_1</type>
   <type>political</type>
  </address_component>
  <address_component>
   <long_name>Italy</long_name>
   <short_name>IT</short_name>
   <type>country</type>
   <type>political</type>
  </address_component>
  <address_component>
   <long_name>42020</long_name>
   <short_name>42020</short_name>
   <type>postal_code</type>
  </address_component>
  <geometry>
   <location>
    <lat>44.6258625</lat>
    <lng>10.4221367</lng>
   </location>
   <location_type>APPROXIMATE</location_type>
   <viewport>
    <southwest>
     <lat>44.6153301</lat>
     <lng>10.4091217</lng>
    </southwest>
    <northeast>
     <lat>44.6371684</lat>
     <lng>10.4395828</lng>
    </northeast>
   </viewport>
   <bounds>
    <southwest>
     <lat>44.6153301</lat>
     <lng>10.4091217</lng>
    </southwest>
    <northeast>
     <lat>44.6371684</lat>
     <lng>10.4395828</lng>
    </northeast>
   </bounds>
  </geometry>
  <partial_match>true</partial_match>
  <place_id>ChIJGVyBSPsOgEcR1sTAGKuZrBA</place_id>
 </result>
 <result>
  <type>route</type>
  <formatted_address>Via S. Polo, 25134 Brescia BS, Italy</formatted_address>
  <address_component>
   <long_name>Via San Polo</long_name>
   <short_name>Via S. Polo</short_name>
   <type>route</type>
  </address_component>
  <address_component>
   <long_name>Brescia</long_name>
   <short_name>Brescia</short_name>
   <type>locality</type>
   <type>political</type>
  </address_component>
  <address_component>
   <long_name>Brescia</long_name>
   <short_name>Brescia</short_name>
   <type>administrative_area_level_3</type>
   <type>political</type>
  </address_component>
  <address_component>
   <long_name>Provincia di Brescia</long_name>
   <short_name>BS</short_name>
   <type>administrative_area_level_2</type>
   <type>political</type>
  </address_component>
  <address_component>
   <long_name>Lombardia</long_name>
   <short_name>Lombardia</short_name>
   <type>administrative_area_level_1</type>
   <type>political</type>
  </address_component>
  <address_component>
   <long_name>Italy</long_name>
   <short_name>IT</short_name>
   <type>country</type>
   <type>political</type>
  </address_component>
  <address_component>
   <long_name>25134</long_name>
   <short_name>25134</short_name>
   <type>postal_code</type>
  </address_component>
  <geometry>
   <location>
    <lat>45.5055369</lat>
    <lng>10.2561915</lng>
   </location>
   <location_type>GEOMETRIC_CENTER</location_type>
   <viewport>
    <southwest>
     <lat>45.5051474</lat>
     <lng>10.2534700</lng>
    </southwest>
    <northeast>
     <lat>45.5096600</lat>
     <lng>10.2574837</lng>
    </northeast>
   </viewport>
   <bounds>
    <southwest>
     <lat>45.5051474</lat>
     <lng>10.2534700</lng>
    </southwest>
    <northeast>
     <lat>45.5096600</lat>
     <lng>10.2574837</lng>
    </northeast>
   </bounds>
  </geometry>
  <partial_match>true</partial_match>
  <place_id>ChIJuU3WRROegUcRPmjUx8Q3ngg</place_id>
 </result>
 <result>
  <type>route</type>
  <formatted_address>Via S. Polo, 35020 Sant'Angelo di Piove di Sacco PD, Italy</formatted_address>
  <address_component>
   <long_name>Via San Polo</long_name>
   <short_name>Via S. Polo</short_name>
   <type>route</type>
  </address_component>
  <address_component>
   <long_name>Sant'Angelo di Piove di Sacco</long_name>
   <short_name>Sant'Angelo di Piove di Sacco</short_name>
   <type>locality</type>
   <type>political</type>
  </address_component>
  <address_component>
   <long_name>Sant'Angelo di Piove di Sacco</long_name>
   <short_name>Sant'Angelo di Piove di Sacco</short_name>
   <type>administrative_area_level_3</type>
   <type>political</type>
  </address_component>
  <address_component>
   <long_name>Provincia di Padova</long_name>
   <short_name>PD</short_name>
   <type>administrative_area_level_2</type>
   <type>political</type>
  </address_component>
  <address_component>
   <long_name>Veneto</long_name>
   <short_name>Veneto</short_name>
   <type>administrative_area_level_1</type>
   <type>political</type>
  </address_component>
  <address_component>
   <long_name>Italy</long_name>
   <short_name>IT</short_name>
   <type>country</type>
   <type>political</type>
  </address_component>
  <address_component>
   <long_name>35020</long_name>
   <short_name>35020</short_name>
   <type>postal_code</type>
  </address_component>
  <geometry>
   <location>
    <lat>45.3323531</lat>
    <lng>11.9934240</lng>
   </location>
   <location_type>GEOMETRIC_CENTER</location_type>
   <viewport>
    <southwest>
     <lat>45.3312021</lat>
     <lng>11.9919673</lng>
    </southwest>
    <northeast>
     <lat>45.3339000</lat>
     <lng>11.9946653</lng>
    </northeast>
   </viewport>
   <bounds>
    <southwest>
     <lat>45.3320815</lat>
     <lng>11.9930764</lng>
    </southwest>
    <northeast>
     <lat>45.3330206</lat>
     <lng>11.9935562</lng>
    </northeast>
   </bounds>
  </geometry>
  <partial_match>true</partial_match>
  <place_id>ChIJC3IGZebDfkcRtnRacH8zUKQ</place_id>
 </result>
 <result>
  <type>locality</type>
  <type>political</type>
  <formatted_address>66014 San Polo I CH, Italy</formatted_address>
  <address_component>
   <long_name>San Polo I</long_name>
   <short_name>San Polo I</short_name>
   <type>locality</type>
   <type>political</type>
  </address_component>
  <address_component>
   <long_name>Crecchio</long_name>
   <short_name>Crecchio</short_name>
   <type>administrative_area_level_3</type>
   <type>political</type>
  </address_component>
  <address_component>
   <long_name>Provincia di Chieti</long_name>
   <short_name>CH</short_name>
   <type>administrative_area_level_2</type>
   <type>political</type>
  </address_component>
  <address_component>
   <long_name>Abruzzo</long_name>
   <short_name>Abruzzo</short_name>
   <type>administrative_area_level_1</type>
   <type>political</type>
  </address_component>
  <address_component>
   <long_name>Italy</long_name>
   <short_name>IT</short_name>
   <type>country</type>
   <type>political</type>
  </address_component>
  <address_component>
   <long_name>66014</long_name>
   <short_name>66014</short_name>
   <type>postal_code</type>
  </address_component>
  <geometry>
   <location>
    <lat>42.2910335</lat>
    <lng>14.3295535</lng>
   </location>
   <location_type>APPROXIMATE</location_type>
   <viewport>
    <southwest>
     <lat>42.2883580</lat>
     <lng>14.3276973</lng>
    </southwest>
    <northeast>
     <lat>42.2914139</lat>
     <lng>14.3303952</lng>
    </northeast>
   </viewport>
   <bounds>
    <southwest>
     <lat>42.2883580</lat>
     <lng>14.3282501</lng>
    </southwest>
    <northeast>
     <lat>42.2914139</lat>
     <lng>14.3298424</lng>
    </northeast>
   </bounds>
  </geometry>
  <partial_match>true</partial_match>
  <place_id>ChIJc7nopDUAMRMRpwNqrhaMQ2Q</place_id>
 </result>
 <result>
  <type>route</type>
  <formatted_address>San Polo Vista, Mandurah WA 6210, Australia</formatted_address>
  <address_component>
   <long_name>San Polo Vista</long_name>
   <short_name>San Polo Vista</short_name>
   <type>route</type>
  </address_component>
  <address_component>
   <long_name>Mandurah</long_name>
   <short_name>Mandurah</short_name>
   <type>locality</type>
   <type>political</type>
  </address_component>
  <address_component>
   <long_name>Western Australia</long_name>
   <short_name>WA</short_name>
   <type>administrative_area_level_1</type>
   <type>political</type>
  </address_component>
  <address_component>
   <long_name>Australia</long_name>
   <short_name>AU</short_name>
   <type>country</type>
   <type>political</type>
  </address_component>
  <address_component>
   <long_name>6210</long_name>
   <short_name>6210</short_name>
   <type>postal_code</type>
  </address_component>
  <geometry>
   <location>
    <lat>-32.5273703</lat>
    <lng>115.7164212</lng>
   </location>
   <location_type>GEOMETRIC_CENTER</location_type>
   <viewport>
    <southwest>
     <lat>-32.5287065</lat>
     <lng>115.7150895</lng>
    </southwest>
    <northeast>
     <lat>-32.5260085</lat>
     <lng>115.7177875</lng>
    </northeast>
   </viewport>
   <bounds>
    <southwest>
     <lat>-32.5276210</lat>
     <lng>115.7161630</lng>
    </southwest>
    <northeast>
     <lat>-32.5270940</lat>
     <lng>115.7167140</lng>
    </northeast>
   </bounds>
  </geometry>
  <partial_match>true</partial_match>
  <place_id>ChIJKb2dttB-MioR765TuwqeoJw</place_id>
 </result>
</GeocodeResponse>
